{
  "depot": {
    "name": "Mahboula Complex - Mix",
    "lat": 29.146545,
    "lng": 48.118341
  },
  "stores": {
    "2": {
      "name": "Mahboula Complex - Mix",
      "lat": 29.146545,
      "lng": 48.118341
    },
    "11148140": {
      "name": "Hardees - Khairan",
      "lat": 28.66311,
      "lng": 48.365472
    },
    "11228040": {
      "name": "BR - Khiran Outlet",
      "lat": 28.67152384,
      "lng": 48.34630157
    },
    "11128420": {
      "name": "KFC - Khiran Outlet",
      "lat": 28.67162738,
      "lng": 48.34640886
    },
    "11198790": {
      "name": "Krispy Kreme - Khiran Hybrid O",
      "lat": 28.67190978,
      "lng": 48.3466288
    },
    "11148460": {
      "name": "Hardees - Khiran Hybrid Outlet",
      "lat": 28.6719945,
      "lng": 48.34673608
    },
    "11198760": {
      "name": "Krispy Kreme - Khiran Square M",
      "lat": 28.67847697,
      "lng": 48.33250624
    },
    "11228110": {
      "name": "BR - Sabah Al Ahmed Coop",
      "lat": 28.78064934,
      "lng": 48.04057647
    },
    "11148410": {
      "name": "Hardees - Sabah Al Ahmed",
      "lat": 28.792,
      "lng": 48.053
    },
    "11128370": {
      "name": "KFC - Sabah Al Ahmad 2",
      "lat": 28.79203867,
      "lng": 48.05321903
    },
    "11227890": {
      "name": "BR - Camp Arifjan 2",
      "lat": 28.87256,
      "lng": 48.16851
    },
    "11127880": {
      "name": "KFC - Arifjan Camp",
      "lat": 28.881125,
      "lng": 48.155028
    },
    "11227880": {
      "name": "BR - Camp Arifjan 1",
      "lat": 28.88436,
      "lng": 48.17866
    },
    "11147860": {
      "name": "Hardees - Arifjan Camp",
      "lat": 28.884715,
      "lng": 48.178645
    },
    "11127470": {
      "name": "KFC - Om El Himan",
      "lat": 28.962943,
      "lng": 48.161436
    },
    "11227470": {
      "name": "BR - Om El Haiman",
      "lat": 28.96298,
      "lng": 48.16143
    },
    "11147470": {
      "name": "Hardees - Om El Himan",
      "lat": 28.963033,
      "lng": 48.16152
    },
    "11198830": {
      "name": "Krispy Kreme - Kout Mall",
      "lat": 29.07775498,
      "lng": 48.1387642
    },
    "11228180": {
      "name": "BR - Kout Mall",
      "lat": 29.07780655,
      "lng": 48.13879906
    },
    "11128220": {
      "name": "KFC - Al Kout Mall",
      "lat": 29.078084,
      "lng": 48.139116
    },
    "11198750": {
      "name": "Krispy Kreme - Fahaheel",
      "lat": 29.07812165,
      "lng": 48.13541496
    },
    "11147750": {
      "name": "Hardees - Al Fahaheel",
      "lat": 29.078125,
      "lng": 48.135481
    },
    "11227750": {
      "name": "BR - Fahaheel",
      "lat": 29.078178,
      "lng": 48.135468
    },
    "11127750": {
      "name": "KFC - Fahaheel",
      "lat": 29.0782,
      "lng": 48.1354
    },
    "11188220": {
      "name": "TGIF - Al Kout Mall",
      "lat": 29.0791,
      "lng": 48.1396
    },
    "11147460": {
      "name": "Hardees - Al Ahmadi",
      "lat": 29.080435,
      "lng": 48.066938
    },
    "11127460": {
      "name": "KFC - Al Ahmadi",
      "lat": 29.0806,
      "lng": 48.067
    },
    "11147960": {
      "name": "Hardees - Al Mangaf",
      "lat": 29.098987,
      "lng": 48.131574
    },
    "11127960": {
      "name": "KFC - Al Mangaf",
      "lat": 29.099227,
      "lng": 48.134147
    },
    "11198700": {
      "name": "Krispy Kreme Mangaf Sultan Centr",
      "lat": 29.10237548,
      "lng": 48.12534815
    },
    "11128400": {
      "name": "KFC - Mangaf 2",
      "lat": 29.10458661,
      "lng": 48.12479592
    },
    "11147740": {
      "name": "Hardees - Al Sbahiya",
      "lat": 29.109567,
      "lng": 48.108588
    },
    "11127760": {
      "name": "KFC - Abo Helifa",
      "lat": 29.1339,
      "lng": 48.1324
    },
    "11147930": {
      "name": "Hardees - Fahd El Ahmed",
      "lat": 29.134419,
      "lng": 48.107682
    },
    "11127930": {
      "name": "KFC - Fahd Al Ahmad",
      "lat": 29.134423,
      "lng": 48.107656
    },
    "11227860": {
      "name": "BR - Qurain 2",
      "lat": 29.134477,
      "lng": 48.107599
    },
    "11227930": {
      "name": "BR - Fahd El Ahmed",
      "lat": 29.134477,
      "lng": 48.107599
    },
    "11127780": {
      "name": "KFC - Al Mahboola",
      "lat": 29.137847,
      "lng": 48.124191
    },
    "11127730": {
      "name": "KFC - Alreqa",
      "lat": 29.1431,
      "lng": 48.1019
    },
    "11147780": {
      "name": "Hardees - Al Fintas",
      "lat": 29.143241,
      "lng": 48.129412
    },
    "11227730": {
      "name": "BR - Reqa",
      "lat": 29.14461,
      "lng": 48.1009
    },
    "11197790": {
      "name": "Krispy Kreme Alyia Ghalyia Tower",
      "lat": 29.149142,
      "lng": 48.125997
    },
    "11187760": {
      "name": "TGIF - Abu Halifa",
      "lat": 29.154,
      "lng": 48.1249
    },
    "11118300": {
      "name": "Wimpy - Abu Halifa",
      "lat": 29.15414054,
      "lng": 48.12480344
    },
    "11147770": {
      "name": "Hardees - Al Zahr",
      "lat": 29.168466,
      "lng": 48.063947
    },
    "11127770": {
      "name": "KFC - Al Zahr",
      "lat": 29.168629,
      "lng": 48.063945
    },
    "11227780": {
      "name": "BR - Al Fintas",
      "lat": 29.171373,
      "lng": 48.120228
    },
    "11148270": {
      "name": "Hardees - Augiela 2",
      "lat": 29.172656,
      "lng": 48.094883
    },
    "11128270": {
      "name": "KFC - Augiela 2",
      "lat": 29.172702,
      "lng": 48.095099
    },
    "11127230": {
      "name": "KFC - Al Bairak Mall",
      "lat": 29.1734,
      "lng": 48.099
    },
    "11227230": {
      "name": "BR - Al Bairak Mall",
      "lat": 29.1735,
      "lng": 48.09851
    },
    "11188090": {
      "name": "TGIF - Gate Mall",
      "lat": 29.1747,
      "lng": 48.0973
    },
    "11198090": {
      "name": "Krispy Kreme - Gate Mall",
      "lat": 29.17496742,
      "lng": 48.09889966
    },
    "11228000": {
      "name": "BR - The Gate Mall",
      "lat": 29.17500489,
      "lng": 48.09886211
    },
    "11128570": {
      "name": "KFC - Loft Fintas",
      "lat": 29.18125495,
      "lng": 48.11705636
    },
    "11127870": {
      "name": "KFC Mubarek El-Kaber(Qurain 2)",
      "lat": 29.1886,
      "lng": 48.0798
    },
    "11228260": {
      "name": "BR - Aswaq Al Qurain",
      "lat": 29.19725105,
      "lng": 48.05375871
    },
    "11128440": {
      "name": "KFC - Aswaq Al Qurain",
      "lat": 29.19730724,
      "lng": 48.05377481
    },
    "11198740": {
      "name": "Krispy Kreme - Aswaq Al Qurain",
      "lat": 29.19731427,
      "lng": 48.05369702
    },
    "11118230": {
      "name": "Wimpy - Qurain Dark Kitchen",
      "lat": 29.1973641,
      "lng": 48.0525026
    },
    "11148480": {
      "name": "Hardees - Qurain Markets",
      "lat": 29.1973848,
      "lng": 48.04665118
    },
    "11147870": {
      "name": "Hardees - Al Qureen 2",
      "lat": 29.204344,
      "lng": 48.077731
    },
    "11227850": {
      "name": "BR - Qurain 1",
      "lat": 29.20439,
      "lng": 48.0777
    },
    "11137870": {
      "name": "Tikka - Qurain",
      "lat": 29.20443,
      "lng": 48.077741
    },
    "11128200": {
      "name": "KFC - Village",
      "lat": 29.212059,
      "lng": 48.10428
    },
    "11148160": {
      "name": "Hardees - Village",
      "lat": 29.21224,
      "lng": 48.104247
    },
    "11198770": {
      "name": "Krispy Kreme - Divonne",
      "lat": 29.21343689,
      "lng": 48.10417093
    },
    "11228250": {
      "name": "BR - Divonne",
      "lat": 29.21344391,
      "lng": 48.10409851
    },
    "11118400": {
      "name": "Wimpy - Divonne Complex",
      "lat": 29.21383204,
      "lng": 48.10389363
    },
    "11127850": {
      "name": "KFC - Qureen",
      "lat": 29.2155,
      "lng": 48.0742
    },
    "11187030": {
      "name": "TGIF - The Lake Mall",
      "lat": 29.216,
      "lng": 48.1032
    },
    "11128020": {
      "name": "KFC - Adan",
      "lat": 29.235456,
      "lng": 48.079627
    },
    "11148020": {
      "name": "Hardees - Adan",
      "lat": 29.235634,
      "lng": 48.079666
    },
    "11147850": {
      "name": "Hardees - Al Qureen",
      "lat": 29.236563,
      "lng": 48.064671
    },
    "11227870": {
      "name": "BR - Qurain 3",
      "lat": 29.23658,
      "lng": 48.06314
    },
    "11127830": {
      "name": "KFC - S Al Salem",
      "lat": 29.2496,
      "lng": 48.0664
    },
    "11128430": {
      "name": "KFC - Sabah Al Salem 2",
      "lat": 29.25425606,
      "lng": 48.08093256
    },
    "11147830": {
      "name": "Hardees - Sabah Al Salem",
      "lat": 29.256562,
      "lng": 48.052294
    },
    "11198820": {
      "name": "Krispy Kreme - Sabah Al Salem",
      "lat": 29.2658215,
      "lng": 48.07883898
    },
    "11228270": {
      "name": "BR - Sabah Al Salem Block 1",
      "lat": 29.26586595,
      "lng": 48.07895968
    },
    "11148490": {
      "name": "Hardees - Sabah Al Salem Block",
      "lat": 29.26592249,
      "lng": 48.07889889
    },
    "11137130": {
      "name": "Tikka - Fahaheel DK",
      "lat": 29.352062,
      "lng": 47.66496348
    },
    "2029001": {
      "name": "Commissary Chicken Tikka KWT",
      "lat": 29.29568,
      "lng": 47.91551
    },
    "11198000": {
      "name": "Krispy Kreme - Sabah Al Ahmed",
      "lat": 28.78067,
      "lng": 48.04054
    },
    "11197110": {
      "name": "Krispy Kreme - Fintas Co",
      "lat": 29.108554,
      "lng": 48.133594
    },
    "11228450": {
      "name": "BR - Al Mangaf",
      "lat": 29.10443,
      "lng": 48.12539262
    }
  },
  "days": [
    "2026-04-05",
    "2026-04-06",
    "2026-04-07",
    "2026-04-08",
    "2026-04-09",
    "2026-04-10",
    "2026-04-11"
  ],
  "index": {
    "2026-04-05": {
      "D1": [
        "T1",
        "T2",
        "T3",
        "T4"
      ],
      "D2": [
        "T1",
        "T2",
        "T3",
        "T4",
        "T5"
      ],
      "D3": [
        "T1",
        "T2",
        "T3"
      ],
      "D4": [
        "T1",
        "T2",
        "T3",
        "T4",
        "T5"
      ],
      "D5": [
        "T1",
        "T2",
        "T3",
        "T4"
      ],
      "D6": [
        "T1",
        "T2",
        "T3",
        "T4"
      ],
      "D7": [
        "T1",
        "T2",
        "T3"
      ],
      "D8": [
        "T1",
        "T2",
        "T3"
      ],
      "D9": [
        "T1",
        "T2",
        "T3",
        "T4"
      ],
      "D10": [
        "T1",
        "T2",
        "T3"
      ],
      "D11": [
        "T1",
        "T2",
        "T3"
      ],
      "D12": [
        "T1",
        "T2",
        "T3"
      ],
      "D13": [
        "T1",
        "T2",
        "T3",
        "T4"
      ]
    },
    "2026-04-06": {
      "D1": [
        "T1",
        "T2",
        "T3",
        "T4",
        "T5",
        "T6"
      ],
      "D2": [
        "T1",
        "T2",
        "T3",
        "T4",
        "T5",
        "T6",
        "T7"
      ],
      "D3": [
        "T1",
        "T2",
        "T3",
        "T4",
        "T5"
      ],
      "D4": [
        "T1",
        "T2"
      ],
      "D5": [
        "T1",
        "T2",
        "T3",
        "T4"
      ],
      "D6": [
        "T1",
        "T2",
        "T3",
        "T4"
      ],
      "D7": [
        "T1",
        "T2",
        "T3",
        "T4",
        "T5",
        "T6"
      ],
      "D8": [
        "T1",
        "T2",
        "T3",
        "T4",
        "T5",
        "T6",
        "T7"
      ],
      "D9": [
        "T1",
        "T2",
        "T3",
        "T4",
        "T5",
        "T6",
        "T7"
      ],
      "D10": [
        "T1",
        "T2",
        "T3"
      ],
      "D11": [
        "T1",
        "T2",
        "T3",
        "T4"
      ],
      "D12": [
        "T1",
        "T2",
        "T3",
        "T4",
        "T5",
        "T6"
      ],
      "D13": [
        "T1",
        "T2",
        "T3",
        "T4",
        "T5",
        "T6",
        "T7"
      ]
    },
    "2026-04-07": {
      "D1": [
        "T1",
        "T2",
        "T3",
        "T4",
        "T5"
      ],
      "D2": [
        "T1",
        "T2",
        "T3",
        "T4",
        "T5"
      ],
      "D3": [
        "T1",
        "T2",
        "T3",
        "T4"
      ],
      "D4": [
        "T1",
        "T2",
        "T3",
        "T4",
        "T5"
      ],
      "D5": [
        "T1",
        "T2",
        "T3",
        "T4",
        "T5"
      ],
      "D6": [
        "T1",
        "T2",
        "T3",
        "T4",
        "T5"
      ],
      "D7": [
        "T1",
        "T2",
        "T3"
      ],
      "D8": [
        "T1",
        "T2",
        "T3",
        "T4"
      ],
      "D9": [
        "T1",
        "T2",
        "T3",
        "T4",
        "T5"
      ],
      "D10": [
        "T1",
        "T2",
        "T3",
        "T4"
      ],
      "D11": [
        "T1",
        "T2",
        "T3",
        "T4",
        "T5"
      ],
      "D12": [
        "T1",
        "T2",
        "T3",
        "T4",
        "T5"
      ],
      "D13": [
        "T1",
        "T2",
        "T3",
        "T4",
        "T5",
        "T6"
      ]
    },
    "2026-04-08": {
      "D1": [
        "T1",
        "T2",
        "T3",
        "T4",
        "T5",
        "T6",
        "T7"
      ],
      "D2": [
        "T1",
        "T2",
        "T3",
        "T4",
        "T5",
        "T6",
        "T7",
        "T8"
      ],
      "D3": [
        "T1",
        "T2",
        "T3",
        "T4",
        "T5"
      ],
      "D4": [
        "T1",
        "T2",
        "T3",
        "T4",
        "T5",
        "T6"
      ],
      "D5": [
        "T1",
        "T2",
        "T3",
        "T4",
        "T5"
      ],
      "D6": [
        "T1",
        "T2",
        "T3",
        "T4"
      ],
      "D7": [
        "T1",
        "T2",
        "T3",
        "T4"
      ],
      "D8": [
        "T1",
        "T2",
        "T3",
        "T4"
      ],
      "D9": [
        "T1",
        "T2",
        "T3",
        "T4"
      ],
      "D10": [
        "T1",
        "T2",
        "T3",
        "T4"
      ],
      "D11": [
        "T1",
        "T2",
        "T3",
        "T4"
      ],
      "D12": [
        "T1",
        "T2",
        "T3",
        "T4",
        "T5"
      ],
      "D13": [
        "T1",
        "T2",
        "T3",
        "T4",
        "T5"
      ]
    },
    "2026-04-09": {
      "D1": [
        "T1",
        "T2",
        "T3",
        "T4",
        "T5",
        "T6"
      ],
      "D2": [
        "T1",
        "T2",
        "T3",
        "T4",
        "T5"
      ],
      "D3": [
        "T1",
        "T2",
        "T3",
        "T4",
        "T5"
      ],
      "D4": [
        "T1",
        "T2",
        "T3",
        "T4",
        "T5",
        "T6"
      ],
      "D5": [
        "T1",
        "T2",
        "T3",
        "T4"
      ],
      "D6": [
        "T1",
        "T2",
        "T3",
        "T4",
        "T5"
      ],
      "D7": [
        "T1",
        "T2",
        "T3",
        "T4",
        "T5",
        "T6",
        "T7"
      ],
      "D8": [
        "T1",
        "T2",
        "T3"
      ],
      "D9": [
        "T1",
        "T2",
        "T3",
        "T4",
        "T5",
        "T6"
      ],
      "D10": [
        "T1",
        "T2",
        "T3",
        "T4"
      ],
      "D11": [
        "T1",
        "T2",
        "T3",
        "T4",
        "T5"
      ],
      "D12": [
        "T1",
        "T2",
        "T3",
        "T4",
        "T5",
        "T6"
      ],
      "D13": [
        "T1",
        "T2",
        "T3",
        "T4"
      ]
    },
    "2026-04-10": {
      "D1": [
        "T1",
        "T2",
        "T3",
        "T4",
        "T5",
        "T6",
        "T7",
        "T8"
      ],
      "D2": [
        "T1",
        "T2",
        "T3",
        "T4",
        "T5",
        "T6"
      ],
      "D3": [
        "T1",
        "T2",
        "T3",
        "T4",
        "T5"
      ],
      "D4": [
        "T1",
        "T2",
        "T3",
        "T4",
        "T5"
      ],
      "D5": [
        "T1",
        "T2",
        "T3",
        "T4",
        "T5"
      ],
      "D6": [
        "T1",
        "T2",
        "T3",
        "T4"
      ],
      "D7": [
        "T1",
        "T2",
        "T3",
        "T4",
        "T5",
        "T6"
      ],
      "D8": [
        "T1",
        "T2",
        "T3",
        "T4",
        "T5"
      ],
      "D9": [
        "T1",
        "T2",
        "T3",
        "T4"
      ],
      "D10": [
        "T1",
        "T2",
        "T3"
      ],
      "D11": [
        "T1",
        "T2",
        "T3",
        "T4"
      ],
      "D12": [
        "T1",
        "T2",
        "T3",
        "T4",
        "T5",
        "T6"
      ],
      "D13": [
        "T1",
        "T2",
        "T3",
        "T4",
        "T5"
      ]
    },
    "2026-04-11": {
      "D1": [
        "T1",
        "T2",
        "T3",
        "T4"
      ],
      "D2": [
        "T1",
        "T2",
        "T3",
        "T4",
        "T5",
        "T6"
      ],
      "D3": [
        "T1",
        "T2",
        "T3",
        "T4",
        "T5"
      ],
      "D4": [
        "T1",
        "T2",
        "T3",
        "T4"
      ],
      "D5": [
        "T1",
        "T2",
        "T3",
        "T4",
        "T5",
        "T6",
        "T7",
        "T8"
      ],
      "D6": [
        "T1",
        "T2",
        "T3"
      ],
      "D7": [
        "T1",
        "T2",
        "T3",
        "T4",
        "T5"
      ],
      "D8": [
        "T1",
        "T2",
        "T3",
        "T4"
      ],
      "D9": [
        "T1",
        "T2",
        "T3",
        "T4",
        "T5",
        "T6",
        "T7"
      ],
      "D10": [
        "T1",
        "T2",
        "T3",
        "T4",
        "T5"
      ],
      "D11": [
        "T1",
        "T2",
        "T3",
        "T4",
        "T5",
        "T6",
        "T7"
      ],
      "D12": [
        "T1",
        "T2",
        "T3",
        "T4",
        "T5",
        "T6"
      ],
      "D13": [
        "T1",
        "T2",
        "T3",
        "T4"
      ]
    }
  },
  "totalTrips": 442,
  "trips": [
    {
      "day": "2026-04-05",
      "drive": "D1",
      "tripId": "T1",
      "type": "IN",
      "tripStart": "04:00 AM",
      "tripEnd": "04:11 AM",
      "stops": [
        {
          "storeId": "11127930",
          "name": "KFC - Fahd Al Ahmad",
          "lat": 29.134423,
          "lng": 48.107656,
          "passengerCount": 2,
          "scheduledTime": "04:00 AM"
        }
      ],
      "employees": [
        {
          "code": "11028162",
          "name": "Prasandeep Prem Kumar Chhetri"
        },
        {
          "code": "11029285",
          "name": "Nicholas Mutebi"
        }
      ],
      "employeeCount": 2
    },
    {
      "day": "2026-04-05",
      "drive": "D1",
      "tripId": "T2",
      "type": "OUT",
      "tripStart": "12:30 PM",
      "tripEnd": "02:20 PM",
      "stops": [
        {
          "storeId": "11187760",
          "name": "TGIF - Abu Halifa",
          "lat": 29.154,
          "lng": 48.1249,
          "passengerCount": 3,
          "scheduledTime": "02:00 PM"
        },
        {
          "storeId": "11118400",
          "name": "Wimpy - Divonne Complex",
          "lat": 29.21383204,
          "lng": 48.10389363,
          "passengerCount": 1,
          "scheduledTime": "02:00 PM"
        },
        {
          "storeId": "11187030",
          "name": "TGIF - The Lake Mall",
          "lat": 29.216,
          "lng": 48.1032,
          "passengerCount": 2,
          "scheduledTime": "02:00 PM"
        },
        {
          "storeId": "11128020",
          "name": "KFC - Adan",
          "lat": 29.235456,
          "lng": 48.079627,
          "passengerCount": 1,
          "scheduledTime": "02:00 PM"
        },
        {
          "storeId": "11147850",
          "name": "Hardees - Al Qureen",
          "lat": 29.236563,
          "lng": 48.064671,
          "passengerCount": 2,
          "scheduledTime": "02:00 PM"
        },
        {
          "storeId": "11127770",
          "name": "KFC - Al Zahr",
          "lat": 29.168629,
          "lng": 48.063945,
          "passengerCount": 1,
          "scheduledTime": "02:00 PM"
        },
        {
          "storeId": "11188220",
          "name": "TGIF - Al Kout Mall",
          "lat": 29.0791,
          "lng": 48.1396,
          "passengerCount": 2,
          "scheduledTime": "02:00 PM"
        }
      ],
      "employees": [
        {
          "code": "11023831",
          "name": "Abey Thomas Mathew Thomas"
        },
        {
          "code": "11026332",
          "name": "Shivaram Parajuli"
        },
        {
          "code": "11026333",
          "name": "Som Bahadur Kunwar"
        },
        {
          "code": "11026371",
          "name": "Vara Prasad Pedapudi"
        },
        {
          "code": "11026855",
          "name": "Sajuna Chhetri"
        },
        {
          "code": "11027003",
          "name": "Suman Karki"
        },
        {
          "code": "11027200",
          "name": "Yeshi Choden"
        },
        {
          "code": "11028605",
          "name": "Binita Raut"
        },
        {
          "code": "11028738",
          "name": "Tendi Zangmo"
        },
        {
          "code": "11029374",
          "name": "Rejina Sampang Rai"
        },
        {
          "code": "11029420",
          "name": "Kumar Budha"
        },
        {
          "code": "11030107",
          "name": "Davis Mutisya Musyoka"
        }
      ],
      "employeeCount": 12
    },
    {
      "day": "2026-04-05",
      "drive": "D1",
      "tripId": "T3",
      "type": "OUT",
      "tripStart": "02:30 PM",
      "tripEnd": "07:12 PM",
      "stops": [
        {
          "storeId": "11128400",
          "name": "KFC - Mangaf 2",
          "lat": 29.10458661,
          "lng": 48.12479592,
          "passengerCount": 5,
          "scheduledTime": "06:00 PM"
        },
        {
          "storeId": "11127750",
          "name": "KFC - Fahaheel",
          "lat": 29.0782,
          "lng": 48.1354,
          "passengerCount": 3,
          "scheduledTime": "06:00 PM"
        },
        {
          "storeId": "11147750",
          "name": "Hardees - Al Fahaheel",
          "lat": 29.078125,
          "lng": 48.135481,
          "passengerCount": 1,
          "scheduledTime": "06:00 PM"
        },
        {
          "storeId": "11198760",
          "name": "Krispy Kreme - Khiran Square M",
          "lat": 28.67847697,
          "lng": 48.33250624,
          "passengerCount": 1,
          "scheduledTime": "06:00 PM"
        },
        {
          "storeId": "11228040",
          "name": "BR - Khiran Outlet",
          "lat": 28.67152384,
          "lng": 48.34630157,
          "passengerCount": 1,
          "scheduledTime": "07:00 PM"
        },
        {
          "storeId": "11198790",
          "name": "Krispy Kreme - Khiran Hybrid O",
          "lat": 28.67190978,
          "lng": 48.3466288,
          "passengerCount": 1,
          "scheduledTime": "06:00 PM"
        },
        {
          "storeId": "11148460",
          "name": "Hardees - Khiran Hybrid Outlet",
          "lat": 28.6719945,
          "lng": 48.34673608,
          "passengerCount": 2,
          "scheduledTime": "06:00 PM"
        },
        {
          "storeId": "11148140",
          "name": "Hardees - Khairan",
          "lat": 28.66311,
          "lng": 48.365472,
          "passengerCount": 1,
          "scheduledTime": "06:00 PM"
        },
        {
          "storeId": "11127470",
          "name": "KFC - Om El Himan",
          "lat": 28.962943,
          "lng": 48.161436,
          "passengerCount": 4,
          "scheduledTime": "06:00 PM"
        },
        {
          "storeId": "11147470",
          "name": "Hardees - Om El Himan",
          "lat": 28.963033,
          "lng": 48.16152,
          "passengerCount": 1,
          "scheduledTime": "06:00 PM"
        },
        {
          "storeId": "11228180",
          "name": "BR - Kout Mall",
          "lat": 29.07780655,
          "lng": 48.13879906,
          "passengerCount": 1,
          "scheduledTime": "07:00 PM"
        },
        {
          "storeId": "11197110",
          "name": "Krispy Kreme - Fintas Co",
          "lat": 29.108554,
          "lng": 48.133594,
          "passengerCount": 1,
          "scheduledTime": "06:00 PM"
        }
      ],
      "employees": [
        {
          "code": "11024000",
          "name": "Jun Arnel Dalo Macahis"
        },
        {
          "code": "11026673",
          "name": "Jit Bahadur Nepali"
        },
        {
          "code": "11026721",
          "name": "Kumar Subba"
        },
        {
          "code": "11027703",
          "name": "Dinesh Indradev Yadav"
        },
        {
          "code": "11027711",
          "name": "Naveen Peddulu Kalleda"
        },
        {
          "code": "11027885",
          "name": "Ngawang Yangden"
        },
        {
          "code": "11027904",
          "name": "Dorji Wangchuk"
        },
        {
          "code": "11027947",
          "name": "Lhawang Choden"
        },
        {
          "code": "11028080",
          "name": "Sabir Ali Hafizur Rahaman Mondal"
        },
        {
          "code": "11028177",
          "name": "Fahad Khan"
        },
        {
          "code": "11028334",
          "name": "Sikha Pariyar"
        },
        {
          "code": "11028589",
          "name": "Kinley Oma Ghalleya"
        },
        {
          "code": "11028693",
          "name": "Monica Kamene Musyoka"
        },
        {
          "code": "11028703",
          "name": "Naw Si Si Win"
        },
        {
          "code": "11028904",
          "name": "Mary Wambui Ndungu"
        },
        {
          "code": "11029223",
          "name": "Bikash Tamang"
        },
        {
          "code": "11029286",
          "name": "Derrick Kabugo"
        },
        {
          "code": "11029456",
          "name": "Mehaboobsab Husensab Hulagur"
        },
        {
          "code": "11029794",
          "name": "Oshadi Layuri Madubhashini Ranasinghela"
        },
        {
          "code": "11029825",
          "name": "Md Anas Moman Ahmad"
        },
        {
          "code": "11030155",
          "name": "Sudeera Dananjaya Koralalage"
        },
        {
          "code": "11030195",
          "name": "Roshan Maheshwaran"
        }
      ],
      "employeeCount": 22
    },
    {
      "day": "2026-04-05",
      "drive": "D1",
      "tripId": "T4",
      "type": "OUT",
      "tripStart": "07:25 PM",
      "tripEnd": "12:29 AM",
      "stops": [
        {
          "storeId": "11147740",
          "name": "Hardees - Al Sbahiya",
          "lat": 29.109567,
          "lng": 48.108588,
          "passengerCount": 2,
          "scheduledTime": "12:00 AM"
        },
        {
          "storeId": "11147870",
          "name": "Hardees - Al Qureen 2",
          "lat": 29.204344,
          "lng": 48.077731,
          "passengerCount": 2,
          "scheduledTime": "12:00 AM"
        },
        {
          "storeId": "11128370",
          "name": "KFC - Sabah Al Ahmad 2",
          "lat": 28.79203867,
          "lng": 48.05321903,
          "passengerCount": 1,
          "scheduledTime": "10:00 PM"
        },
        {
          "storeId": "11148410",
          "name": "Hardees - Sabah Al Ahmed",
          "lat": 28.792,
          "lng": 48.053,
          "passengerCount": 4,
          "scheduledTime": "12:00 AM"
        },
        {
          "storeId": "11198790",
          "name": "Krispy Kreme - Khiran Hybrid O",
          "lat": 28.67190978,
          "lng": 48.3466288,
          "passengerCount": 1,
          "scheduledTime": "12:00 AM"
        }
      ],
      "employees": [
        {
          "code": "11027094",
          "name": "Ismael Nswemu"
        },
        {
          "code": "11027176",
          "name": "Indraprakash Yadav"
        },
        {
          "code": "11027451",
          "name": "Syed Wahid Ali"
        },
        {
          "code": "11027460",
          "name": "Rajat Rajinder Kumar"
        },
        {
          "code": "11028013",
          "name": "Kranthi Keerthi"
        },
        {
          "code": "11028950",
          "name": "Astha Pariyar"
        },
        {
          "code": "11029196",
          "name": "Sonam Dargay"
        },
        {
          "code": "11029315",
          "name": "Abhay Arora"
        },
        {
          "code": "11029801",
          "name": "Raka Armani"
        },
        {
          "code": "11030035",
          "name": "Mohamad Ihshan Mohamad Rizvi"
        }
      ],
      "employeeCount": 10
    },
    {
      "day": "2026-04-05",
      "drive": "D2",
      "tripId": "T1",
      "type": "OUT",
      "tripStart": "04:15 AM",
      "tripEnd": "09:16 AM",
      "stops": [
        {
          "storeId": "11128370",
          "name": "KFC - Sabah Al Ahmad 2",
          "lat": 28.79203867,
          "lng": 48.05321903,
          "passengerCount": 6,
          "scheduledTime": "09:00 AM"
        },
        {
          "storeId": "11148410",
          "name": "Hardees - Sabah Al Ahmed",
          "lat": 28.792,
          "lng": 48.053,
          "passengerCount": 3,
          "scheduledTime": "09:00 AM"
        },
        {
          "storeId": "11198000",
          "name": "Krispy Kreme - Sabah Al Ahmed",
          "lat": 28.78067,
          "lng": 48.04054,
          "passengerCount": 1,
          "scheduledTime": "09:00 AM"
        },
        {
          "storeId": "11198760",
          "name": "Krispy Kreme - Khiran Square M",
          "lat": 28.67847697,
          "lng": 48.33250624,
          "passengerCount": 1,
          "scheduledTime": "09:00 AM"
        },
        {
          "storeId": "11198790",
          "name": "Krispy Kreme - Khiran Hybrid O",
          "lat": 28.67190978,
          "lng": 48.3466288,
          "passengerCount": 1,
          "scheduledTime": "09:00 AM"
        },
        {
          "storeId": "11128420",
          "name": "KFC - Khiran Outlet",
          "lat": 28.67162738,
          "lng": 48.34640886,
          "passengerCount": 1,
          "scheduledTime": "09:00 AM"
        },
        {
          "storeId": "11148460",
          "name": "Hardees - Khiran Hybrid Outlet",
          "lat": 28.6719945,
          "lng": 48.34673608,
          "passengerCount": 2,
          "scheduledTime": "09:00 AM"
        },
        {
          "storeId": "11148140",
          "name": "Hardees - Khairan",
          "lat": 28.66311,
          "lng": 48.365472,
          "passengerCount": 1,
          "scheduledTime": "09:00 AM"
        },
        {
          "storeId": "11128220",
          "name": "KFC - Al Kout Mall",
          "lat": 29.078084,
          "lng": 48.139116,
          "passengerCount": 2,
          "scheduledTime": "09:00 AM"
        },
        {
          "storeId": "11197110",
          "name": "Krispy Kreme - Fintas Co",
          "lat": 29.108554,
          "lng": 48.133594,
          "passengerCount": 1,
          "scheduledTime": "09:00 AM"
        }
      ],
      "employees": [
        {
          "code": "11020174",
          "name": "Ahmed Hassan Aly"
        },
        {
          "code": "11027058",
          "name": "Jhalak Bahadur Majhi"
        },
        {
          "code": "11027292",
          "name": "Bipin Pokhrel"
        },
        {
          "code": "11027329",
          "name": "Muhammed Nizaam Mele Kandi"
        },
        {
          "code": "11027858",
          "name": "Jafar Khan Samiulla Khan"
        },
        {
          "code": "11027971",
          "name": "Manu Babu"
        },
        {
          "code": "11028023",
          "name": "Mohamed Asfak Abdul Azeez"
        },
        {
          "code": "11028467",
          "name": "Ronaldo Pereira Da Silva Caldas"
        },
        {
          "code": "11028474",
          "name": "Mohammad Shadab Baduzzama Farooqui"
        },
        {
          "code": "11028960",
          "name": "Bhima Thapa"
        },
        {
          "code": "11029106",
          "name": "Kabita Ghalley"
        },
        {
          "code": "11029268",
          "name": "Sagar Yadav"
        },
        {
          "code": "11029394",
          "name": "Hansa Praneeth Madusanka Kalumith"
        },
        {
          "code": "11029700",
          "name": "Mitchelle Adhiambo Onyango"
        },
        {
          "code": "11029784",
          "name": "Catherine Wangui Mbogo"
        },
        {
          "code": "11029801",
          "name": "Raka Armani"
        },
        {
          "code": "11029917",
          "name": "Dinithi Jayamini Allaperuma Arachchige"
        },
        {
          "code": "11029948",
          "name": "Sharvin Jospeh Jose"
        }
      ],
      "employeeCount": 19
    },
    {
      "day": "2026-04-05",
      "drive": "D2",
      "tripId": "T2",
      "type": "OUT",
      "tripStart": "01:15 PM",
      "tripEnd": "05:36 PM",
      "stops": [
        {
          "storeId": "11148020",
          "name": "Hardees - Adan",
          "lat": 29.235634,
          "lng": 48.079666,
          "passengerCount": 2,
          "scheduledTime": "06:00 PM"
        },
        {
          "storeId": "11128020",
          "name": "KFC - Adan",
          "lat": 29.235456,
          "lng": 48.079627,
          "passengerCount": 2,
          "scheduledTime": "06:00 PM"
        },
        {
          "storeId": "11147850",
          "name": "Hardees - Al Qureen",
          "lat": 29.236563,
          "lng": 48.064671,
          "passengerCount": 1,
          "scheduledTime": "06:00 PM"
        },
        {
          "storeId": "11127830",
          "name": "KFC - S Al Salem",
          "lat": 29.2496,
          "lng": 48.0664,
          "passengerCount": 3,
          "scheduledTime": "06:00 PM"
        },
        {
          "storeId": "11148490",
          "name": "Hardees - Sabah Al Salem Block",
          "lat": 29.26592249,
          "lng": 48.07889889,
          "passengerCount": 1,
          "scheduledTime": "06:00 PM"
        },
        {
          "storeId": "11198820",
          "name": "Krispy Kreme - Sabah Al Salem",
          "lat": 29.2658215,
          "lng": 48.07883898,
          "passengerCount": 1,
          "scheduledTime": "06:00 PM"
        },
        {
          "storeId": "11147830",
          "name": "Hardees - Sabah Al Salem",
          "lat": 29.256562,
          "lng": 48.052294,
          "passengerCount": 2,
          "scheduledTime": "06:00 PM"
        },
        {
          "storeId": "11137130",
          "name": "Tikka - Fahaheel DK",
          "lat": 29.352062,
          "lng": 47.66496348,
          "passengerCount": 2,
          "scheduledTime": "06:00 PM"
        },
        {
          "storeId": "11198740",
          "name": "Krispy Kreme - Aswaq Al Qurain",
          "lat": 29.19731427,
          "lng": 48.05369702,
          "passengerCount": 1,
          "scheduledTime": "06:00 PM"
        },
        {
          "storeId": "11127870",
          "name": "KFC Mubarek El-Kaber(Qurain 2)",
          "lat": 29.1886,
          "lng": 48.0798,
          "passengerCount": 5,
          "scheduledTime": "06:00 PM"
        },
        {
          "storeId": "11198090",
          "name": "Krispy Kreme - Gate Mall",
          "lat": 29.17496742,
          "lng": 48.09889966,
          "passengerCount": 1,
          "scheduledTime": "06:00 PM"
        },
        {
          "storeId": "11128270",
          "name": "KFC - Augiela 2",
          "lat": 29.172702,
          "lng": 48.095099,
          "passengerCount": 3,
          "scheduledTime": "06:00 PM"
        }
      ],
      "employees": [
        {
          "code": "11007975",
          "name": "Mohammed Ali"
        },
        {
          "code": "11024415",
          "name": "Praveen Peddammakadi"
        },
        {
          "code": "11026240",
          "name": "Sujan Gurung"
        },
        {
          "code": "11026478",
          "name": "Madhu Yellaiah Darra"
        },
        {
          "code": "11026814",
          "name": "Sajeed Syed"
        },
        {
          "code": "11027435",
          "name": "Prajith Muraleedharan"
        },
        {
          "code": "11027462",
          "name": "Naveed Mahamadhaneef Basarikatti"
        },
        {
          "code": "11028244",
          "name": "Mohamed Anwar Ahmed Elsayed"
        },
        {
          "code": "11028286",
          "name": "Mohamed Elshahat Mohamed Ahmed Elshahat"
        },
        {
          "code": "11028341",
          "name": "Bhishma Thapa"
        },
        {
          "code": "11028344",
          "name": "Anusha Tik Ram Limbu"
        },
        {
          "code": "11028611",
          "name": "Anjali Darji"
        },
        {
          "code": "11028707",
          "name": "Shwe Zin El"
        },
        {
          "code": "11028747",
          "name": "Jamilah Nabirye"
        },
        {
          "code": "11029137",
          "name": "Sheila Akankwatsa"
        },
        {
          "code": "11029148",
          "name": "Pema Lhamo Moktan"
        },
        {
          "code": "11029191",
          "name": "Tshewang Choden"
        },
        {
          "code": "11029403",
          "name": "Samod Pramodya Jagoda"
        },
        {
          "code": "11029405",
          "name": "Mohammed Nifras Mohammed Segu Ali Udayar"
        },
        {
          "code": "11029731",
          "name": "Laurean Apondi Okoth"
        },
        {
          "code": "11029925",
          "name": "Harishchandra Praveen Naik"
        },
        {
          "code": "11029969",
          "name": "Mahmadadnan Fidahusen Gousab Bagban"
        },
        {
          "code": "11030001",
          "name": "Kadru Hashim Kadru Shahul Hameed"
        },
        {
          "code": "11030084",
          "name": "Peter Wanjohi Mwangi"
        }
      ],
      "employeeCount": 24
    },
    {
      "day": "2026-04-05",
      "drive": "D2",
      "tripId": "T3",
      "type": "OUT",
      "tripStart": "06:00 PM",
      "tripEnd": "08:09 PM",
      "stops": [
        {
          "storeId": "11127960",
          "name": "KFC - Al Mangaf",
          "lat": 29.099227,
          "lng": 48.134147,
          "passengerCount": 1,
          "scheduledTime": "08:00 PM"
        },
        {
          "storeId": "11147750",
          "name": "Hardees - Al Fahaheel",
          "lat": 29.078125,
          "lng": 48.135481,
          "passengerCount": 2,
          "scheduledTime": "08:00 PM"
        },
        {
          "storeId": "11147470",
          "name": "Hardees - Om El Himan",
          "lat": 28.963033,
          "lng": 48.16152,
          "passengerCount": 5,
          "scheduledTime": "08:00 PM"
        },
        {
          "storeId": "11127470",
          "name": "KFC - Om El Himan",
          "lat": 28.962943,
          "lng": 48.161436,
          "passengerCount": 9,
          "scheduledTime": "08:00 PM"
        },
        {
          "storeId": "11188220",
          "name": "TGIF - Al Kout Mall",
          "lat": 29.0791,
          "lng": 48.1396,
          "passengerCount": 5,
          "scheduledTime": "08:00 PM"
        },
        {
          "storeId": "11147750",
          "name": "Hardees - Al Fahaheel",
          "lat": 29.078125,
          "lng": 48.135481,
          "passengerCount": 1,
          "scheduledTime": "08:00 PM"
        },
        {
          "storeId": "11227750",
          "name": "BR - Fahaheel",
          "lat": 29.078178,
          "lng": 48.135468,
          "passengerCount": 1,
          "scheduledTime": "08:00 PM"
        },
        {
          "storeId": "11127750",
          "name": "KFC - Fahaheel",
          "lat": 29.0782,
          "lng": 48.1354,
          "passengerCount": 2,
          "scheduledTime": "08:00 PM"
        },
        {
          "storeId": "11127960",
          "name": "KFC - Al Mangaf",
          "lat": 29.099227,
          "lng": 48.134147,
          "passengerCount": 2,
          "scheduledTime": "08:00 PM"
        },
        {
          "storeId": "11128400",
          "name": "KFC - Mangaf 2",
          "lat": 29.10458661,
          "lng": 48.12479592,
          "passengerCount": 1,
          "scheduledTime": "08:00 PM"
        }
      ],
      "employees": [
        {
          "code": "11001526",
          "name": "Samer Disowky Khalil Baoumy"
        },
        {
          "code": "11015073",
          "name": "Ramy Mohamed Mansour Salim"
        },
        {
          "code": "11020130",
          "name": "Mohamed Ahmed Elsayed"
        },
        {
          "code": "11026494",
          "name": "Narendar Pedda Narsaiah Nemuri"
        },
        {
          "code": "11026632",
          "name": "Madan Sunuwar"
        },
        {
          "code": "11026889",
          "name": "Ramu Bhasu Jadhav"
        },
        {
          "code": "11027066",
          "name": "Abinash Rai"
        },
        {
          "code": "11027077",
          "name": "Raj Kumar Lopchan"
        },
        {
          "code": "11027164",
          "name": "Sanjeev Kumar"
        },
        {
          "code": "11027324",
          "name": "Altaf Hussain Nalband"
        },
        {
          "code": "11027350",
          "name": "Pappu Paswan"
        },
        {
          "code": "11027562",
          "name": "Veeramahesh Nanaparapu"
        },
        {
          "code": "11027573",
          "name": "Mohammed Zameer Ahmed"
        },
        {
          "code": "11027799",
          "name": "Ayesha Dilhani Welandagama Arachchilage"
        },
        {
          "code": "11027865",
          "name": "Sadathulla Hussaini Syed Khutub Hussaini"
        },
        {
          "code": "11027905",
          "name": "Hari Bdr Kami"
        },
        {
          "code": "11027932",
          "name": "Ugyen Pelzang"
        },
        {
          "code": "11028021",
          "name": "Kandula Venkatesh"
        },
        {
          "code": "11028333",
          "name": "Sarita Tamang"
        },
        {
          "code": "11028395",
          "name": "Neha Shrestha Adhikari"
        },
        {
          "code": "11028405",
          "name": "Sumina Magar"
        },
        {
          "code": "11028556",
          "name": "Meena Gurung"
        },
        {
          "code": "11028873",
          "name": "Usha Nepali"
        },
        {
          "code": "11028959",
          "name": "Krishna Kumari Sapkota"
        },
        {
          "code": "11029267",
          "name": "Sunil Bishwakarma"
        },
        {
          "code": "11029340",
          "name": "Gurpreet Kaur"
        },
        {
          "code": "11029585",
          "name": "Pradeep Singh Gaira"
        },
        {
          "code": "11029701",
          "name": "Faith Muthoni Wambua"
        },
        {
          "code": "11030075",
          "name": "Sakeel Ahamad Raheem"
        }
      ],
      "employeeCount": 29
    },
    {
      "day": "2026-04-05",
      "drive": "D2",
      "tripId": "T4",
      "type": "OUT",
      "tripStart": "08:15 PM",
      "tripEnd": "09:20 PM",
      "stops": [
        {
          "storeId": "11227730",
          "name": "BR - Reqa",
          "lat": 29.14461,
          "lng": 48.1009,
          "passengerCount": 1,
          "scheduledTime": "08:00 PM"
        },
        {
          "storeId": "11147770",
          "name": "Hardees - Al Zahr",
          "lat": 29.168466,
          "lng": 48.063947,
          "passengerCount": 4,
          "scheduledTime": "08:00 PM"
        },
        {
          "storeId": "11127770",
          "name": "KFC - Al Zahr",
          "lat": 29.168629,
          "lng": 48.063945,
          "passengerCount": 4,
          "scheduledTime": "08:00 PM"
        },
        {
          "storeId": "11128440",
          "name": "KFC - Aswaq Al Qurain",
          "lat": 29.19730724,
          "lng": 48.05377481,
          "passengerCount": 8,
          "scheduledTime": "08:00 PM"
        },
        {
          "storeId": "11148480",
          "name": "Hardees - Qurain Markets",
          "lat": 29.1973848,
          "lng": 48.04665118,
          "passengerCount": 1,
          "scheduledTime": "09:00 PM"
        },
        {
          "storeId": "11148480",
          "name": "Hardees - Qurain Markets",
          "lat": 29.1973848,
          "lng": 48.04665118,
          "passengerCount": 3,
          "scheduledTime": "08:00 PM"
        }
      ],
      "employees": [
        {
          "code": "11025826",
          "name": "Sibgatullah Niyazahmed Bagsiraj"
        },
        {
          "code": "11026689",
          "name": "Budha Bahadur Magar"
        },
        {
          "code": "11027193",
          "name": "Chandra Shekar Alugottu"
        },
        {
          "code": "11027251",
          "name": "Pramod Singh"
        },
        {
          "code": "11027302",
          "name": "Lila Prasad Nepal"
        },
        {
          "code": "11027343",
          "name": "Daud Khan"
        },
        {
          "code": "11027927",
          "name": "Alfred Mark Sales Oagdan"
        },
        {
          "code": "11027938",
          "name": "Karma Wangmo"
        },
        {
          "code": "11028016",
          "name": "Satya Sai Mahanthi"
        },
        {
          "code": "11028222",
          "name": "Sonia Almeida Carvalho"
        },
        {
          "code": "11028338",
          "name": "Manisha Thing"
        },
        {
          "code": "11028555",
          "name": "Sumana Gurung"
        },
        {
          "code": "11028911",
          "name": "Joyce Njambi Mbogo"
        },
        {
          "code": "11029070",
          "name": "Adarsh Kumar Shyam Bihari Mishra"
        },
        {
          "code": "11029597",
          "name": "Hasini Anupprama Wijenayake Arachchilage"
        },
        {
          "code": "11029707",
          "name": "Esther Nyaruiru Gatonye"
        },
        {
          "code": "11029719",
          "name": "Jane Muthoni Kagwai"
        },
        {
          "code": "11029814",
          "name": "Indira Kumari Koirala"
        },
        {
          "code": "11029920",
          "name": "Uday Kiran Kappu"
        },
        {
          "code": "11029923",
          "name": "Arbajali Dastagirsab Nadaf"
        },
        {
          "code": "11030175",
          "name": "Shashimini Jayawardhana Adhikari Mudiyanselage"
        }
      ],
      "employeeCount": 21
    },
    {
      "day": "2026-04-05",
      "drive": "D2",
      "tripId": "T5",
      "type": "IN",
      "tripStart": "11:00 PM",
      "tripEnd": "11:39 PM",
      "stops": [
        {
          "storeId": "11188220",
          "name": "TGIF - Al Kout Mall",
          "lat": 29.0791,
          "lng": 48.1396,
          "passengerCount": 9,
          "scheduledTime": "11:00 PM"
        },
        {
          "storeId": "11198830",
          "name": "Krispy Kreme - Kout Mall",
          "lat": 29.07775498,
          "lng": 48.1387642,
          "passengerCount": 1,
          "scheduledTime": "11:00 PM"
        }
      ],
      "employees": [
        {
          "code": "11026333",
          "name": "Som Bahadur Kunwar"
        },
        {
          "code": "11026516",
          "name": "Ajay Kumar"
        },
        {
          "code": "11026634",
          "name": "Shushil Kumar Basnet"
        },
        {
          "code": "11027164",
          "name": "Sanjeev Kumar"
        },
        {
          "code": "11027191",
          "name": "Hasan Shaikh"
        },
        {
          "code": "11027799",
          "name": "Ayesha Dilhani Welandagama Arachchilage"
        },
        {
          "code": "11027955",
          "name": "Phuntsho Wangmo"
        },
        {
          "code": "11028612",
          "name": "Shanti Tamang"
        },
        {
          "code": "11028959",
          "name": "Krishna Kumari Sapkota"
        },
        {
          "code": "11029420",
          "name": "Kumar Budha"
        }
      ],
      "employeeCount": 10
    },
    {
      "day": "2026-04-05",
      "drive": "D3",
      "tripId": "T1",
      "type": "OUT",
      "tripStart": "04:30 AM",
      "tripEnd": "06:19 AM",
      "stops": [
        {
          "storeId": "11127930",
          "name": "KFC - Fahd Al Ahmad",
          "lat": 29.134423,
          "lng": 48.107656,
          "passengerCount": 2,
          "scheduledTime": "06:00 AM"
        },
        {
          "storeId": "2029001",
          "name": "Commissary Chicken Tikka KWT",
          "lat": 29.29568,
          "lng": 47.91551,
          "passengerCount": 11,
          "scheduledTime": "06:00 AM"
        }
      ],
      "employees": [
        {
          "code": "11001713",
          "name": "Muhammed Abdulkarim Haris Ali"
        },
        {
          "code": "11021764",
          "name": "Sabiyullah Ali"
        },
        {
          "code": "11026407",
          "name": "Ameer Mullanmadakkal"
        },
        {
          "code": "11026408",
          "name": "Mohammed Razal Kuttikuthiya Parambil"
        },
        {
          "code": "11026429",
          "name": "Shivam Kumar"
        },
        {
          "code": "11026431",
          "name": "Sonu Kumar"
        },
        {
          "code": "11026468",
          "name": "Safvan Edavanichal"
        },
        {
          "code": "11027018",
          "name": "Dilip Bohara"
        },
        {
          "code": "11029289",
          "name": "Yashodha Rasanjali Wikramagamage"
        },
        {
          "code": "11029503",
          "name": "Nawaz Doulat Hossain Sk"
        },
        {
          "code": "11029655",
          "name": "Dasu Chinna Vadapalli Uppe"
        },
        {
          "code": "11029659",
          "name": "Asheel Dilaksha Deyalage Don"
        },
        {
          "code": "11029976",
          "name": "Vipin Pratap Negi Singh"
        }
      ],
      "employeeCount": 13
    },
    {
      "day": "2026-04-05",
      "drive": "D3",
      "tripId": "T2",
      "type": "OUT",
      "tripStart": "01:15 PM",
      "tripEnd": "05:33 PM",
      "stops": [
        {
          "storeId": "11127730",
          "name": "KFC - Alreqa",
          "lat": 29.1431,
          "lng": 48.1019,
          "passengerCount": 6,
          "scheduledTime": "05:00 PM"
        },
        {
          "storeId": "11127730",
          "name": "KFC - Alreqa",
          "lat": 29.1431,
          "lng": 48.1019,
          "passengerCount": 2,
          "scheduledTime": "04:00 PM"
        },
        {
          "storeId": "11128400",
          "name": "KFC - Mangaf 2",
          "lat": 29.10458661,
          "lng": 48.12479592,
          "passengerCount": 1,
          "scheduledTime": "04:00 PM"
        },
        {
          "storeId": "11128420",
          "name": "KFC - Khiran Outlet",
          "lat": 28.67162738,
          "lng": 48.34640886,
          "passengerCount": 4,
          "scheduledTime": "05:00 PM"
        },
        {
          "storeId": "11127470",
          "name": "KFC - Om El Himan",
          "lat": 28.962943,
          "lng": 48.161436,
          "passengerCount": 3,
          "scheduledTime": "04:00 PM"
        },
        {
          "storeId": "11128220",
          "name": "KFC - Al Kout Mall",
          "lat": 29.078084,
          "lng": 48.139116,
          "passengerCount": 3,
          "scheduledTime": "04:00 PM"
        },
        {
          "storeId": "11188220",
          "name": "TGIF - Al Kout Mall",
          "lat": 29.0791,
          "lng": 48.1396,
          "passengerCount": 2,
          "scheduledTime": "04:00 PM"
        },
        {
          "storeId": "11127960",
          "name": "KFC - Al Mangaf",
          "lat": 29.099227,
          "lng": 48.134147,
          "passengerCount": 2,
          "scheduledTime": "06:00 PM"
        }
      ],
      "employees": [
        {
          "code": "11001526",
          "name": "Samer Disowky Khalil Baoumy"
        },
        {
          "code": "11024389",
          "name": "Achyuta Chowdary Boppana"
        },
        {
          "code": "11026632",
          "name": "Madan Sunuwar"
        },
        {
          "code": "11026648",
          "name": "Chun Bahadur Ghising"
        },
        {
          "code": "11027067",
          "name": "Hari Sapkota"
        },
        {
          "code": "11027842",
          "name": "Shaik Afroz Shaik Haji"
        },
        {
          "code": "11027847",
          "name": "Divakar Lakshmanrao Balam"
        },
        {
          "code": "11027868",
          "name": "Moidi Sathar Abdul Gafoor Saqafi"
        },
        {
          "code": "11027939",
          "name": "Sampa Dendup"
        },
        {
          "code": "11027946",
          "name": "Dechen Choden"
        },
        {
          "code": "11027951",
          "name": "Nowraj Gurung"
        },
        {
          "code": "11027969",
          "name": "Sai Charan Kavalla"
        },
        {
          "code": "11028022",
          "name": "Rajashekar Samala"
        },
        {
          "code": "11028332",
          "name": "Sunita Budhathoki"
        },
        {
          "code": "11028558",
          "name": "Tulasa Monger"
        },
        {
          "code": "11028567",
          "name": "Passang Lhamo Sherpa"
        },
        {
          "code": "11028580",
          "name": "Pema Yangchen"
        },
        {
          "code": "11028585",
          "name": "Kishori Gurung"
        },
        {
          "code": "11028690",
          "name": "Carolin Nyambura Kimotho"
        },
        {
          "code": "11029264",
          "name": "Sirshak Ranjitkar"
        },
        {
          "code": "11029365",
          "name": "Pavithran Sounder Raj"
        },
        {
          "code": "11029673",
          "name": "Hareesh Kumar Reddy Motakapalli"
        },
        {
          "code": "11029943",
          "name": "Athira Prakash Kumar"
        }
      ],
      "employeeCount": 23
    },
    {
      "day": "2026-04-05",
      "drive": "D3",
      "tripId": "T3",
      "type": "IN",
      "tripStart": "06:00 PM",
      "tripEnd": "10:52 PM",
      "stops": [
        {
          "storeId": "11127780",
          "name": "KFC - Al Mahboola",
          "lat": 29.137847,
          "lng": 48.124191,
          "passengerCount": 1,
          "scheduledTime": "06:00 PM"
        },
        {
          "storeId": "11197110",
          "name": "Krispy Kreme - Fintas Co",
          "lat": 29.108554,
          "lng": 48.133594,
          "passengerCount": 1,
          "scheduledTime": "06:00 PM"
        },
        {
          "storeId": "11127750",
          "name": "KFC - Fahaheel",
          "lat": 29.0782,
          "lng": 48.1354,
          "passengerCount": 3,
          "scheduledTime": "06:00 PM"
        },
        {
          "storeId": "11198750",
          "name": "Krispy Kreme - Fahaheel",
          "lat": 29.07812165,
          "lng": 48.13541496,
          "passengerCount": 1,
          "scheduledTime": "06:00 PM"
        },
        {
          "storeId": "11147750",
          "name": "Hardees - Al Fahaheel",
          "lat": 29.078125,
          "lng": 48.135481,
          "passengerCount": 1,
          "scheduledTime": "06:00 PM"
        },
        {
          "storeId": "11147470",
          "name": "Hardees - Om El Himan",
          "lat": 28.963033,
          "lng": 48.16152,
          "passengerCount": 2,
          "scheduledTime": "06:00 PM"
        },
        {
          "storeId": "11127470",
          "name": "KFC - Om El Himan",
          "lat": 28.962943,
          "lng": 48.161436,
          "passengerCount": 4,
          "scheduledTime": "06:00 PM"
        },
        {
          "storeId": "11198760",
          "name": "Krispy Kreme - Khiran Square M",
          "lat": 28.67847697,
          "lng": 48.33250624,
          "passengerCount": 1,
          "scheduledTime": "06:00 PM"
        },
        {
          "storeId": "11228040",
          "name": "BR - Khiran Outlet",
          "lat": 28.67152384,
          "lng": 48.34630157,
          "passengerCount": 1,
          "scheduledTime": "07:00 PM"
        },
        {
          "storeId": "11128420",
          "name": "KFC - Khiran Outlet",
          "lat": 28.67162738,
          "lng": 48.34640886,
          "passengerCount": 1,
          "scheduledTime": "06:00 PM"
        },
        {
          "storeId": "11128420",
          "name": "KFC - Khiran Outlet",
          "lat": 28.67162738,
          "lng": 48.34640886,
          "passengerCount": 2,
          "scheduledTime": "07:00 PM"
        },
        {
          "storeId": "11198790",
          "name": "Krispy Kreme - Khiran Hybrid O",
          "lat": 28.67190978,
          "lng": 48.3466288,
          "passengerCount": 1,
          "scheduledTime": "06:00 PM"
        },
        {
          "storeId": "11148460",
          "name": "Hardees - Khiran Hybrid Outlet",
          "lat": 28.6719945,
          "lng": 48.34673608,
          "passengerCount": 1,
          "scheduledTime": "06:00 PM"
        },
        {
          "storeId": "11148140",
          "name": "Hardees - Khairan",
          "lat": 28.66311,
          "lng": 48.365472,
          "passengerCount": 1,
          "scheduledTime": "06:00 PM"
        }
      ],
      "employees": [
        {
          "code": "11017088",
          "name": "Antonio Jr D Bertuldo"
        },
        {
          "code": "11020174",
          "name": "Ahmed Hassan Aly"
        },
        {
          "code": "11026750",
          "name": "Ugyen Wangmo"
        },
        {
          "code": "11027000",
          "name": "Nitesh Thapa"
        },
        {
          "code": "11027068",
          "name": "Kishor Adhikari"
        },
        {
          "code": "11027070",
          "name": "Asmita Pariyar"
        },
        {
          "code": "11027329",
          "name": "Muhammed Nizaam Mele Kandi"
        },
        {
          "code": "11027916",
          "name": "Ayaz Shaik Jameel"
        },
        {
          "code": "11028234",
          "name": "Mohamed Magdy Gaber Mahfouz"
        },
        {
          "code": "11028467",
          "name": "Ronaldo Pereira Da Silva Caldas"
        },
        {
          "code": "11028574",
          "name": "Bedu Maya Ghalley"
        },
        {
          "code": "11028689",
          "name": "Bessy Kawira"
        },
        {
          "code": "11028691",
          "name": "Emily Njambi Maina"
        },
        {
          "code": "11028960",
          "name": "Bhima Thapa"
        },
        {
          "code": "11029393",
          "name": "Buddhi Chanaka Nagoda Liyanage"
        },
        {
          "code": "11029394",
          "name": "Hansa Praneeth Madusanka Kalumith"
        },
        {
          "code": "11029413",
          "name": "Sachin Wismitha Hewage"
        },
        {
          "code": "11029801",
          "name": "Raka Armani"
        },
        {
          "code": "11029858",
          "name": "Dilshan Milinda Liyana Gunawardana"
        },
        {
          "code": "11029941",
          "name": "Amal Rajeev Govind Raj"
        },
        {
          "code": "11029984",
          "name": "Noufal Meera Sahib Rafeeka Beevi"
        }
      ],
      "employeeCount": 21
    },
    {
      "day": "2026-04-05",
      "drive": "D4",
      "tripId": "T1",
      "type": "OUT",
      "tripStart": "04:45 AM",
      "tripEnd": "09:43 AM",
      "stops": [
        {
          "storeId": "11147740",
          "name": "Hardees - Al Sbahiya",
          "lat": 29.109567,
          "lng": 48.108588,
          "passengerCount": 2,
          "scheduledTime": "11:00 AM"
        },
        {
          "storeId": "11127470",
          "name": "KFC - Om El Himan",
          "lat": 28.962943,
          "lng": 48.161436,
          "passengerCount": 5,
          "scheduledTime": "11:00 AM"
        },
        {
          "storeId": "11147470",
          "name": "Hardees - Om El Himan",
          "lat": 28.963033,
          "lng": 48.16152,
          "passengerCount": 1,
          "scheduledTime": "11:00 AM"
        },
        {
          "storeId": "11227470",
          "name": "BR - Om El Haiman",
          "lat": 28.96298,
          "lng": 48.16143,
          "passengerCount": 2,
          "scheduledTime": "11:00 AM"
        },
        {
          "storeId": "11148140",
          "name": "Hardees - Khairan",
          "lat": 28.66311,
          "lng": 48.365472,
          "passengerCount": 2,
          "scheduledTime": "11:00 AM"
        },
        {
          "storeId": "11128420",
          "name": "KFC - Khiran Outlet",
          "lat": 28.67162738,
          "lng": 48.34640886,
          "passengerCount": 2,
          "scheduledTime": "10:00 AM"
        },
        {
          "storeId": "11228040",
          "name": "BR - Khiran Outlet",
          "lat": 28.67152384,
          "lng": 48.34630157,
          "passengerCount": 1,
          "scheduledTime": "10:00 AM"
        },
        {
          "storeId": "11228110",
          "name": "BR - Sabah Al Ahmed Coop",
          "lat": 28.78064934,
          "lng": 48.04057647,
          "passengerCount": 2,
          "scheduledTime": "10:00 AM"
        },
        {
          "storeId": "11148410",
          "name": "Hardees - Sabah Al Ahmed",
          "lat": 28.792,
          "lng": 48.053,
          "passengerCount": 3,
          "scheduledTime": "11:00 AM"
        }
      ],
      "employees": [
        {
          "code": "11005920",
          "name": "Islam Mohamed Ahmed"
        },
        {
          "code": "11026207",
          "name": "Ibrahim Ramadan Elsayed Eltahawy"
        },
        {
          "code": "11026396",
          "name": "Venkanna Babu Yadavalli"
        },
        {
          "code": "11026698",
          "name": "Kushal Magar"
        },
        {
          "code": "11027066",
          "name": "Abinash Rai"
        },
        {
          "code": "11027660",
          "name": "Mohamed Najeeb Mohamed Nawshard"
        },
        {
          "code": "11028021",
          "name": "Kandula Venkatesh"
        },
        {
          "code": "11028134",
          "name": "Janisaar Altaf Hussain Akhtar"
        },
        {
          "code": "11028523",
          "name": "Sk Shahbaz Jainul Sk Alam"
        },
        {
          "code": "11028556",
          "name": "Meena Gurung"
        },
        {
          "code": "11028689",
          "name": "Bessy Kawira"
        },
        {
          "code": "11028691",
          "name": "Emily Njambi Maina"
        },
        {
          "code": "11028840",
          "name": "Thinley Wangmo"
        },
        {
          "code": "11028865",
          "name": "Duptho Pema"
        },
        {
          "code": "11029267",
          "name": "Sunil Bishwakarma"
        },
        {
          "code": "11029393",
          "name": "Buddhi Chanaka Nagoda Liyanage"
        },
        {
          "code": "11029587",
          "name": "Victoria Chemutai Ngeno"
        },
        {
          "code": "11029701",
          "name": "Faith Muthoni Wambua"
        },
        {
          "code": "11029867",
          "name": "Simran Bi Arif Shaikh"
        },
        {
          "code": "11030055",
          "name": "Shoon Lin Let Win Khin"
        }
      ],
      "employeeCount": 20
    },
    {
      "day": "2026-04-05",
      "drive": "D4",
      "tripId": "T2",
      "type": "OUT",
      "tripStart": "02:45 PM",
      "tripEnd": "04:18 PM",
      "stops": [
        {
          "storeId": "11128270",
          "name": "KFC - Augiela 2",
          "lat": 29.172702,
          "lng": 48.095099,
          "passengerCount": 1,
          "scheduledTime": "04:00 PM"
        },
        {
          "storeId": "11147870",
          "name": "Hardees - Al Qureen 2",
          "lat": 29.204344,
          "lng": 48.077731,
          "passengerCount": 1,
          "scheduledTime": "04:00 PM"
        },
        {
          "storeId": "11127850",
          "name": "KFC - Qureen",
          "lat": 29.2155,
          "lng": 48.0742,
          "passengerCount": 1,
          "scheduledTime": "04:00 PM"
        },
        {
          "storeId": "11147850",
          "name": "Hardees - Al Qureen",
          "lat": 29.236563,
          "lng": 48.064671,
          "passengerCount": 1,
          "scheduledTime": "04:00 PM"
        },
        {
          "storeId": "11147830",
          "name": "Hardees - Sabah Al Salem",
          "lat": 29.256562,
          "lng": 48.052294,
          "passengerCount": 2,
          "scheduledTime": "04:00 PM"
        },
        {
          "storeId": "11187030",
          "name": "TGIF - The Lake Mall",
          "lat": 29.216,
          "lng": 48.1032,
          "passengerCount": 5,
          "scheduledTime": "04:00 PM"
        },
        {
          "storeId": "11128200",
          "name": "KFC - Village",
          "lat": 29.212059,
          "lng": 48.10428,
          "passengerCount": 1,
          "scheduledTime": "04:00 PM"
        },
        {
          "storeId": "11187760",
          "name": "TGIF - Abu Halifa",
          "lat": 29.154,
          "lng": 48.1249,
          "passengerCount": 3,
          "scheduledTime": "04:00 PM"
        }
      ],
      "employees": [
        {
          "code": "11026471",
          "name": "Palliyalil Muhammed Hashim"
        },
        {
          "code": "11026503",
          "name": "Srikanth Ramulu Peddigari"
        },
        {
          "code": "11026633",
          "name": "Roshan Gotame"
        },
        {
          "code": "11026679",
          "name": "Sunil Limbu"
        },
        {
          "code": "11026751",
          "name": "Rigden Wangpo"
        },
        {
          "code": "11026867",
          "name": "Mubarak Bepari"
        },
        {
          "code": "11027201",
          "name": "Sangay Wangmo"
        },
        {
          "code": "11028186",
          "name": "Sheik Sahil  Habibul"
        },
        {
          "code": "11028291",
          "name": "Hazem Ahmed Elbadry Nouby Ahmed"
        },
        {
          "code": "11028924",
          "name": "Pem Lhamo Bal"
        },
        {
          "code": "11028925",
          "name": "Pramu Devi Waiba"
        },
        {
          "code": "11029146",
          "name": "Shubham Rabindranath Paul"
        },
        {
          "code": "11029329",
          "name": "Suresh Verriyya Kadali"
        },
        {
          "code": "11029429",
          "name": "Kasthuri Kanchanga Brahmana Arachchige"
        },
        {
          "code": "11029797",
          "name": "Hnin Yu Khaing"
        }
      ],
      "employeeCount": 15
    },
    {
      "day": "2026-04-05",
      "drive": "D4",
      "tripId": "T3",
      "type": "OUT",
      "tripStart": "07:15 PM",
      "tripEnd": "08:29 PM",
      "stops": [
        {
          "storeId": "11127850",
          "name": "KFC - Qureen",
          "lat": 29.2155,
          "lng": 48.0742,
          "passengerCount": 6,
          "scheduledTime": "08:00 PM"
        },
        {
          "storeId": "11227870",
          "name": "BR - Qurain 3",
          "lat": 29.23658,
          "lng": 48.06314,
          "passengerCount": 5,
          "scheduledTime": "08:00 PM"
        },
        {
          "storeId": "11147850",
          "name": "Hardees - Al Qureen",
          "lat": 29.236563,
          "lng": 48.064671,
          "passengerCount": 5,
          "scheduledTime": "08:00 PM"
        },
        {
          "storeId": "11187760",
          "name": "TGIF - Abu Halifa",
          "lat": 29.154,
          "lng": 48.1249,
          "passengerCount": 4,
          "scheduledTime": "08:00 PM"
        },
        {
          "storeId": "11127730",
          "name": "KFC - Alreqa",
          "lat": 29.1431,
          "lng": 48.1019,
          "passengerCount": 3,
          "scheduledTime": "09:00 PM"
        }
      ],
      "employees": [
        {
          "code": "11024106",
          "name": "Mohamed Mafas Mohamed Mahroof"
        },
        {
          "code": "11024409",
          "name": "Mahmoud Abbas Abelhalim"
        },
        {
          "code": "11026615",
          "name": "Nagendra Rajbanshi"
        },
        {
          "code": "11026706",
          "name": "Amit Gurung"
        },
        {
          "code": "11026999",
          "name": "Mukta Pariyar"
        },
        {
          "code": "11027204",
          "name": "Kinzang Lham"
        },
        {
          "code": "11027370",
          "name": "Dineshpandian Ramamoorthi"
        },
        {
          "code": "11027403",
          "name": "Niyazahmed Abdulgaffar Sangoli"
        },
        {
          "code": "11027767",
          "name": "Aboutery Helal Aboutery Ali"
        },
        {
          "code": "11027957",
          "name": "Rinzin Wangmo"
        },
        {
          "code": "11028433",
          "name": "Ranjana Tamang Lungeli"
        },
        {
          "code": "11028575",
          "name": "Tenzin Tshomo"
        },
        {
          "code": "11028740",
          "name": "Tandin Wangchuk"
        },
        {
          "code": "11029261",
          "name": "Ramesh Khatri"
        },
        {
          "code": "11029419",
          "name": "Dil Kumar Sherpa"
        },
        {
          "code": "11029470",
          "name": "Sohel Chandsab Nadaf"
        },
        {
          "code": "11029498",
          "name": "Faizan Haider Vikar Haider"
        },
        {
          "code": "11029552",
          "name": "Rhamatullah Sammiullah"
        },
        {
          "code": "11029793",
          "name": "Sohani Dinithika Palawaththa Acharige"
        },
        {
          "code": "11029910",
          "name": "Om Dalï¿½ Singh Pal"
        },
        {
          "code": "11030152",
          "name": "Mohamed Farshan Mohamed Luthfy"
        }
      ],
      "employeeCount": 23
    },
    {
      "day": "2026-04-05",
      "drive": "D4",
      "tripId": "T4",
      "type": "MIXED",
      "tripStart": "08:30 PM",
      "tripEnd": "09:33 PM",
      "stops": [
        {
          "storeId": "11128400",
          "name": "KFC - Mangaf 2",
          "lat": 29.10458661,
          "lng": 48.12479592,
          "passengerCount": 4,
          "scheduledTime": "08:00 PM"
        },
        {
          "storeId": "11147960",
          "name": "Hardees - Al Mangaf",
          "lat": 29.098987,
          "lng": 48.131574,
          "passengerCount": 5,
          "scheduledTime": "08:00 PM"
        },
        {
          "storeId": "11127750",
          "name": "KFC - Fahaheel",
          "lat": 29.0782,
          "lng": 48.1354,
          "passengerCount": 5,
          "scheduledTime": "08:00 PM"
        },
        {
          "storeId": "11127960",
          "name": "KFC - Al Mangaf",
          "lat": 29.099227,
          "lng": 48.134147,
          "passengerCount": 2,
          "scheduledTime": "09:00 PM"
        },
        {
          "storeId": "11228180",
          "name": "BR - Kout Mall",
          "lat": 29.07780655,
          "lng": 48.13879906,
          "passengerCount": 1,
          "scheduledTime": "10:00 PM"
        }
      ],
      "employees": [
        {
          "code": "11026368",
          "name": "Durga Rao Yalamadurthi"
        },
        {
          "code": "11026533",
          "name": "Gopal Singh"
        },
        {
          "code": "11026750",
          "name": "Ugyen Wangmo"
        },
        {
          "code": "11026934",
          "name": "Sher Bahadur Monger"
        },
        {
          "code": "11027090",
          "name": "Ibra Kagada"
        },
        {
          "code": "11027566",
          "name": "Manoj Polasa"
        },
        {
          "code": "11027601",
          "name": "Tuk Bahadur Basnet"
        },
        {
          "code": "11027672",
          "name": "Ajithkumar Balakrishnan"
        },
        {
          "code": "11027901",
          "name": "Kinley Wangchuk"
        },
        {
          "code": "11027916",
          "name": "Ayaz Shaik Jameel"
        },
        {
          "code": "11027940",
          "name": "Devika Rai"
        },
        {
          "code": "11028220",
          "name": "Marazia Almeida Baptista"
        },
        {
          "code": "11028563",
          "name": "Yeshi Choden"
        },
        {
          "code": "11028694",
          "name": "Peace Gatwiri Reuben"
        },
        {
          "code": "11029287",
          "name": "Ilankesh Udayakumar"
        },
        {
          "code": "11029724",
          "name": "Esther Wambui Nganga"
        },
        {
          "code": "11029887",
          "name": "Mohamed Arshad Badurdeen Mohamed Jaleel"
        }
      ],
      "employeeCount": 17
    },
    {
      "day": "2026-04-05",
      "drive": "D4",
      "tripId": "T5",
      "type": "OUT",
      "tripStart": "11:30 PM",
      "tripEnd": "12:41 AM",
      "stops": [
        {
          "storeId": "11187760",
          "name": "TGIF - Abu Halifa",
          "lat": 29.154,
          "lng": 48.1249,
          "passengerCount": 7,
          "scheduledTime": "11:00 PM"
        },
        {
          "storeId": "11118400",
          "name": "Wimpy - Divonne Complex",
          "lat": 29.21383204,
          "lng": 48.10389363,
          "passengerCount": 1,
          "scheduledTime": "11:00 PM"
        },
        {
          "storeId": "11187030",
          "name": "TGIF - The Lake Mall",
          "lat": 29.216,
          "lng": 48.1032,
          "passengerCount": 7,
          "scheduledTime": "11:00 PM"
        },
        {
          "storeId": "11128020",
          "name": "KFC - Adan",
          "lat": 29.235456,
          "lng": 48.079627,
          "passengerCount": 1,
          "scheduledTime": "11:00 PM"
        },
        {
          "storeId": "11127770",
          "name": "KFC - Al Zahr",
          "lat": 29.168629,
          "lng": 48.063945,
          "passengerCount": 1,
          "scheduledTime": "11:00 PM"
        }
      ],
      "employees": [
        {
          "code": "11024409",
          "name": "Mahmoud Abbas Abelhalim"
        },
        {
          "code": "11026332",
          "name": "Shivaram Parajuli"
        },
        {
          "code": "11026371",
          "name": "Vara Prasad Pedapudi"
        },
        {
          "code": "11026855",
          "name": "Sajuna Chhetri"
        },
        {
          "code": "11026982",
          "name": "Prabin Bhujel"
        },
        {
          "code": "11027003",
          "name": "Suman Karki"
        },
        {
          "code": "11027200",
          "name": "Yeshi Choden"
        },
        {
          "code": "11027767",
          "name": "Aboutery Helal Aboutery Ali"
        },
        {
          "code": "11027960",
          "name": "Sonam Choden"
        },
        {
          "code": "11028891",
          "name": "Sabita Majhi"
        },
        {
          "code": "11028934",
          "name": "Ugyen Tshomo"
        },
        {
          "code": "11029219",
          "name": "Ajit Gurung"
        },
        {
          "code": "11029374",
          "name": "Rejina Sampang Rai"
        },
        {
          "code": "11029419",
          "name": "Dil Kumar Sherpa"
        },
        {
          "code": "11029552",
          "name": "Rhamatullah Sammiullah"
        },
        {
          "code": "11030078",
          "name": "Urvaj Uday Ramchandra Shirke"
        },
        {
          "code": "11030107",
          "name": "Davis Mutisya Musyoka"
        }
      ],
      "employeeCount": 17
    },
    {
      "day": "2026-04-05",
      "drive": "D5",
      "tripId": "T1",
      "type": "OUT",
      "tripStart": "06:30 AM",
      "tripEnd": "09:03 AM",
      "stops": [
        {
          "storeId": "11127870",
          "name": "KFC Mubarek El-Kaber(Qurain 2)",
          "lat": 29.1886,
          "lng": 48.0798,
          "passengerCount": 3,
          "scheduledTime": "09:00 AM"
        },
        {
          "storeId": "11128440",
          "name": "KFC - Aswaq Al Qurain",
          "lat": 29.19730724,
          "lng": 48.05377481,
          "passengerCount": 2,
          "scheduledTime": "09:00 AM"
        },
        {
          "storeId": "11198740",
          "name": "Krispy Kreme - Aswaq Al Qurain",
          "lat": 29.19731427,
          "lng": 48.05369702,
          "passengerCount": 1,
          "scheduledTime": "09:00 AM"
        },
        {
          "storeId": "11148480",
          "name": "Hardees - Qurain Markets",
          "lat": 29.1973848,
          "lng": 48.04665118,
          "passengerCount": 1,
          "scheduledTime": "09:00 AM"
        },
        {
          "storeId": "11147830",
          "name": "Hardees - Sabah Al Salem",
          "lat": 29.256562,
          "lng": 48.052294,
          "passengerCount": 2,
          "scheduledTime": "09:00 AM"
        },
        {
          "storeId": "11127830",
          "name": "KFC - S Al Salem",
          "lat": 29.2496,
          "lng": 48.0664,
          "passengerCount": 2,
          "scheduledTime": "09:00 AM"
        },
        {
          "storeId": "11148490",
          "name": "Hardees - Sabah Al Salem Block",
          "lat": 29.26592249,
          "lng": 48.07889889,
          "passengerCount": 1,
          "scheduledTime": "09:00 AM"
        },
        {
          "storeId": "11198820",
          "name": "Krispy Kreme - Sabah Al Salem",
          "lat": 29.2658215,
          "lng": 48.07883898,
          "passengerCount": 1,
          "scheduledTime": "09:00 AM"
        },
        {
          "storeId": "11128430",
          "name": "KFC - Sabah Al Salem 2",
          "lat": 29.25425606,
          "lng": 48.08093256,
          "passengerCount": 2,
          "scheduledTime": "09:00 AM"
        },
        {
          "storeId": "11118400",
          "name": "Wimpy - Divonne Complex",
          "lat": 29.21383204,
          "lng": 48.10389363,
          "passengerCount": 1,
          "scheduledTime": "09:00 AM"
        },
        {
          "storeId": "11148160",
          "name": "Hardees - Village",
          "lat": 29.21224,
          "lng": 48.104247,
          "passengerCount": 2,
          "scheduledTime": "09:00 AM"
        },
        {
          "storeId": "11128200",
          "name": "KFC - Village",
          "lat": 29.212059,
          "lng": 48.10428,
          "passengerCount": 2,
          "scheduledTime": "09:00 AM"
        },
        {
          "storeId": "11198770",
          "name": "Krispy Kreme - Divonne",
          "lat": 29.21343689,
          "lng": 48.10417093,
          "passengerCount": 1,
          "scheduledTime": "09:00 AM"
        },
        {
          "storeId": "11128570",
          "name": "KFC - Loft Fintas",
          "lat": 29.18125495,
          "lng": 48.11705636,
          "passengerCount": 1,
          "scheduledTime": "09:00 AM"
        },
        {
          "storeId": "11147870",
          "name": "Hardees - Al Qureen 2",
          "lat": 29.204344,
          "lng": 48.077731,
          "passengerCount": 1,
          "scheduledTime": "09:00 AM"
        }
      ],
      "employees": [
        {
          "code": "11026237",
          "name": "Saroj Sah"
        },
        {
          "code": "11026244",
          "name": "Tek Bahadur Tamang"
        },
        {
          "code": "11026308",
          "name": "Bhimraj Tamang"
        },
        {
          "code": "11026492",
          "name": "Kishor Devaiah Acha"
        },
        {
          "code": "11026932",
          "name": "Leki Zangmo"
        },
        {
          "code": "11026945",
          "name": "Bishal Gaha Magar"
        },
        {
          "code": "11027365",
          "name": "Sohil Ajaj Ahmed Khaji"
        },
        {
          "code": "11028340",
          "name": "Kamana Silwal"
        },
        {
          "code": "11028588",
          "name": "Phuntsho Phuntsho"
        },
        {
          "code": "11028859",
          "name": "Parneet Kaur Hardeep Singh"
        },
        {
          "code": "11029020",
          "name": "Sanga Choden"
        },
        {
          "code": "11029222",
          "name": "Buddha Bir Limboo"
        },
        {
          "code": "11029265",
          "name": "Sujan Gurung"
        },
        {
          "code": "11029371",
          "name": "Mohamed Yasser Maheer"
        },
        {
          "code": "11029387",
          "name": "Niroj Thakur"
        },
        {
          "code": "11029428",
          "name": "Mohamed Shaheeth Mohamed Ilyas"
        },
        {
          "code": "11029476",
          "name": "Suresh Mallikarjuna Chandaragi"
        },
        {
          "code": "11029620",
          "name": "Abbas Mehdi Sikander Mehdi"
        },
        {
          "code": "11029765",
          "name": "Augusta Mukhwana Mukalukha"
        },
        {
          "code": "11029804",
          "name": "Sujarno Ponimin Jopawiro"
        },
        {
          "code": "11029811",
          "name": "Aye Nwet Moe"
        },
        {
          "code": "11029970",
          "name": "Mohammedfurqan Abunasar Siddique"
        },
        {
          "code": "11029987",
          "name": "Mohammed Irfan Mohammed Khurshid Alam"
        }
      ],
      "employeeCount": 23
    },
    {
      "day": "2026-04-05",
      "drive": "D5",
      "tripId": "T2",
      "type": "IN",
      "tripStart": "03:00 PM",
      "tripEnd": "05:06 PM",
      "stops": [
        {
          "storeId": "11187030",
          "name": "TGIF - The Lake Mall",
          "lat": 29.216,
          "lng": 48.1032,
          "passengerCount": 4,
          "scheduledTime": "04:00 PM"
        },
        {
          "storeId": "11147850",
          "name": "Hardees - Al Qureen",
          "lat": 29.236563,
          "lng": 48.064671,
          "passengerCount": 1,
          "scheduledTime": "04:00 PM"
        },
        {
          "storeId": "11147830",
          "name": "Hardees - Sabah Al Salem",
          "lat": 29.256562,
          "lng": 48.052294,
          "passengerCount": 4,
          "scheduledTime": "04:00 PM"
        },
        {
          "storeId": "2029001",
          "name": "Commissary Chicken Tikka KWT",
          "lat": 29.29568,
          "lng": 47.91551,
          "passengerCount": 1,
          "scheduledTime": "03:00 PM"
        },
        {
          "storeId": "2029001",
          "name": "Commissary Chicken Tikka KWT",
          "lat": 29.29568,
          "lng": 47.91551,
          "passengerCount": 10,
          "scheduledTime": "04:00 PM"
        }
      ],
      "employees": [
        {
          "code": "11001713",
          "name": "Muhammed Abdulkarim Haris Ali"
        },
        {
          "code": "11021764",
          "name": "Sabiyullah Ali"
        },
        {
          "code": "11026407",
          "name": "Ameer Mullanmadakkal"
        },
        {
          "code": "11026408",
          "name": "Mohammed Razal Kuttikuthiya Parambil"
        },
        {
          "code": "11026429",
          "name": "Shivam Kumar"
        },
        {
          "code": "11026431",
          "name": "Sonu Kumar"
        },
        {
          "code": "11026468",
          "name": "Safvan Edavanichal"
        },
        {
          "code": "11026982",
          "name": "Prabin Bhujel"
        },
        {
          "code": "11027018",
          "name": "Dilip Bohara"
        },
        {
          "code": "11027565",
          "name": "Satheesh Penta"
        },
        {
          "code": "11027960",
          "name": "Sonam Choden"
        },
        {
          "code": "11028891",
          "name": "Sabita Majhi"
        },
        {
          "code": "11028946",
          "name": "Sunita Lama"
        },
        {
          "code": "11029334",
          "name": "Sahil Sharma"
        },
        {
          "code": "11029498",
          "name": "Faizan Haider Vikar Haider"
        },
        {
          "code": "11029503",
          "name": "Nawaz Doulat Hossain Sk"
        },
        {
          "code": "11029655",
          "name": "Dasu Chinna Vadapalli Uppe"
        },
        {
          "code": "11029659",
          "name": "Asheel Dilaksha Deyalage Don"
        },
        {
          "code": "11030078",
          "name": "Urvaj Uday Ramchandra Shirke"
        },
        {
          "code": "11030211",
          "name": "Dunvilock Mariyasoosai"
        }
      ],
      "employeeCount": 20
    },
    {
      "day": "2026-04-05",
      "drive": "D5",
      "tripId": "T3",
      "type": "MIXED",
      "tripStart": "06:30 PM",
      "tripEnd": "07:56 PM",
      "stops": [
        {
          "storeId": "11147780",
          "name": "Hardees - Al Fintas",
          "lat": 29.143241,
          "lng": 48.129412,
          "passengerCount": 3,
          "scheduledTime": "06:00 PM"
        },
        {
          "storeId": "11127780",
          "name": "KFC - Al Mahboola",
          "lat": 29.137847,
          "lng": 48.124191,
          "passengerCount": 3,
          "scheduledTime": "06:00 PM"
        },
        {
          "storeId": "11127730",
          "name": "KFC - Alreqa",
          "lat": 29.1431,
          "lng": 48.1019,
          "passengerCount": 7,
          "scheduledTime": "07:00 PM"
        },
        {
          "storeId": "11128270",
          "name": "KFC - Augiela 2",
          "lat": 29.172702,
          "lng": 48.095099,
          "passengerCount": 1,
          "scheduledTime": "06:00 PM"
        },
        {
          "storeId": "11148270",
          "name": "Hardees - Augiela 2",
          "lat": 29.172656,
          "lng": 48.094883,
          "passengerCount": 4,
          "scheduledTime": "06:00 PM"
        },
        {
          "storeId": "11227850",
          "name": "BR - Qurain 1",
          "lat": 29.20439,
          "lng": 48.0777,
          "passengerCount": 2,
          "scheduledTime": "08:00 PM"
        },
        {
          "storeId": "11127870",
          "name": "KFC Mubarek El-Kaber(Qurain 2)",
          "lat": 29.1886,
          "lng": 48.0798,
          "passengerCount": 3,
          "scheduledTime": "08:00 PM"
        },
        {
          "storeId": "11147770",
          "name": "Hardees - Al Zahr",
          "lat": 29.168466,
          "lng": 48.063947,
          "passengerCount": 1,
          "scheduledTime": "08:00 PM"
        },
        {
          "storeId": "11227730",
          "name": "BR - Reqa",
          "lat": 29.14461,
          "lng": 48.1009,
          "passengerCount": 1,
          "scheduledTime": "08:00 PM"
        }
      ],
      "employees": [
        {
          "code": "11024745",
          "name": "Kelum Ranga Suduwa Dewage"
        },
        {
          "code": "11026027",
          "name": "Noushad Ali Alligoudar"
        },
        {
          "code": "11026472",
          "name": "Muhammed Hilal Nasser"
        },
        {
          "code": "11026555",
          "name": "Abinash Tamang"
        },
        {
          "code": "11026642",
          "name": "Tulasi Magar"
        },
        {
          "code": "11026671",
          "name": "Milan Shrestha"
        },
        {
          "code": "11026942",
          "name": "Nabin Gurau"
        },
        {
          "code": "11027298",
          "name": "Dinesh Tharu"
        },
        {
          "code": "11027399",
          "name": "Afrid Altaf Doni"
        },
        {
          "code": "11027613",
          "name": "Amrit Tamang"
        },
        {
          "code": "11027690",
          "name": "Ahmed Ashraf Ebrahim Ahmed"
        },
        {
          "code": "11027915",
          "name": "Venkatesh Goud Puppagoni"
        },
        {
          "code": "11028163",
          "name": "Virendra Singh"
        },
        {
          "code": "11028223",
          "name": "Hassan Mohamed Mohamed Hassan Nasr"
        },
        {
          "code": "11028348",
          "name": "Radhika Bohara Pokhrel"
        },
        {
          "code": "11028442",
          "name": "Govind Chaudhary"
        },
        {
          "code": "11028565",
          "name": "Amana Rai"
        },
        {
          "code": "11028746",
          "name": "Sharifah Kisembo"
        },
        {
          "code": "11028806",
          "name": "Dulyana Sasindi Pinnawala Hewalage"
        },
        {
          "code": "11028953",
          "name": "Dimpal Ashok Lepcha"
        },
        {
          "code": "11029290",
          "name": "Anee Begha Limbu"
        },
        {
          "code": "11029703",
          "name": "Peninah Wangu Kimani"
        },
        {
          "code": "11029928",
          "name": "Mujahid Sikandar Mantoor"
        },
        {
          "code": "11029974",
          "name": "Lakhveer Singhï¿½ Sarbjit"
        },
        {
          "code": "11030091",
          "name": "Mohamed Hamjad Aaideen"
        }
      ],
      "employeeCount": 25
    },
    {
      "day": "2026-04-05",
      "drive": "D5",
      "tripId": "T4",
      "type": "MIXED",
      "tripStart": "08:16 PM",
      "tripEnd": "10:03 PM",
      "stops": [
        {
          "storeId": "11127850",
          "name": "KFC - Qureen",
          "lat": 29.2155,
          "lng": 48.0742,
          "passengerCount": 1,
          "scheduledTime": "08:00 PM"
        },
        {
          "storeId": "11128020",
          "name": "KFC - Adan",
          "lat": 29.235456,
          "lng": 48.079627,
          "passengerCount": 3,
          "scheduledTime": "08:00 PM"
        },
        {
          "storeId": "11148020",
          "name": "Hardees - Adan",
          "lat": 29.235634,
          "lng": 48.079666,
          "passengerCount": 2,
          "scheduledTime": "08:00 PM"
        },
        {
          "storeId": "11148020",
          "name": "Hardees - Adan",
          "lat": 29.235634,
          "lng": 48.079666,
          "passengerCount": 1,
          "scheduledTime": "09:00 PM"
        },
        {
          "storeId": "11227870",
          "name": "BR - Qurain 3",
          "lat": 29.23658,
          "lng": 48.06314,
          "passengerCount": 2,
          "scheduledTime": "08:00 PM"
        },
        {
          "storeId": "11127830",
          "name": "KFC - S Al Salem",
          "lat": 29.2496,
          "lng": 48.0664,
          "passengerCount": 4,
          "scheduledTime": "08:00 PM"
        },
        {
          "storeId": "11128430",
          "name": "KFC - Sabah Al Salem 2",
          "lat": 29.25425606,
          "lng": 48.08093256,
          "passengerCount": 2,
          "scheduledTime": "08:00 PM"
        },
        {
          "storeId": "11228270",
          "name": "BR - Sabah Al Salem Block 1",
          "lat": 29.26586595,
          "lng": 48.07895968,
          "passengerCount": 1,
          "scheduledTime": "08:00 PM"
        },
        {
          "storeId": "11147830",
          "name": "Hardees - Sabah Al Salem",
          "lat": 29.256562,
          "lng": 48.052294,
          "passengerCount": 2,
          "scheduledTime": "08:00 PM"
        }
      ],
      "employees": [
        {
          "code": "11004911",
          "name": "Mahmoud Mohamed Mohamed Aly"
        },
        {
          "code": "11023831",
          "name": "Abey Thomas Mathew Thomas"
        },
        {
          "code": "11026348",
          "name": "Afroz Byadgi"
        },
        {
          "code": "11026568",
          "name": "Niyas Palliyalithodi"
        },
        {
          "code": "11026869",
          "name": "Azeem Mohammad Hanif Shaikh"
        },
        {
          "code": "11027334",
          "name": "Pavan Kalyan Mallula"
        },
        {
          "code": "11027375",
          "name": "Mariselvam Nallaiyan"
        },
        {
          "code": "11028302",
          "name": "Sangay Dema"
        },
        {
          "code": "11028340",
          "name": "Kamana Silwal"
        },
        {
          "code": "11028991",
          "name": "Sabina Sunuwar"
        },
        {
          "code": "11029117",
          "name": "Kinley Wangmo"
        },
        {
          "code": "11029156",
          "name": "Dechen Choden"
        },
        {
          "code": "11029454",
          "name": "Mantosh Bhola Pandit"
        },
        {
          "code": "11029561",
          "name": "Cecelia Wangeci Wanjiru"
        },
        {
          "code": "11029757",
          "name": "Sharmila Limbu"
        },
        {
          "code": "11029763",
          "name": "Regina Waithira Wangari"
        },
        {
          "code": "11029987",
          "name": "Mohammed Irfan Mohammed Khurshid Alam"
        },
        {
          "code": "11030093",
          "name": "Chalani Erandika Karuwa Kondage"
        }
      ],
      "employeeCount": 18
    },
    {
      "day": "2026-04-05",
      "drive": "D6",
      "tripId": "T1",
      "type": "OUT",
      "tripStart": "06:45 AM",
      "tripEnd": "09:18 AM",
      "stops": [
        {
          "storeId": "11147740",
          "name": "Hardees - Al Sbahiya",
          "lat": 29.109567,
          "lng": 48.108588,
          "passengerCount": 1,
          "scheduledTime": "09:00 AM"
        },
        {
          "storeId": "11127460",
          "name": "KFC - Al Ahmadi",
          "lat": 29.0806,
          "lng": 48.067,
          "passengerCount": 2,
          "scheduledTime": "09:00 AM"
        },
        {
          "storeId": "11147460",
          "name": "Hardees - Al Ahmadi",
          "lat": 29.080435,
          "lng": 48.066938,
          "passengerCount": 1,
          "scheduledTime": "09:00 AM"
        },
        {
          "storeId": "11127470",
          "name": "KFC - Om El Himan",
          "lat": 28.962943,
          "lng": 48.161436,
          "passengerCount": 4,
          "scheduledTime": "09:00 AM"
        },
        {
          "storeId": "11147470",
          "name": "Hardees - Om El Himan",
          "lat": 28.963033,
          "lng": 48.16152,
          "passengerCount": 2,
          "scheduledTime": "09:00 AM"
        },
        {
          "storeId": "11147750",
          "name": "Hardees - Al Fahaheel",
          "lat": 29.078125,
          "lng": 48.135481,
          "passengerCount": 1,
          "scheduledTime": "09:00 AM"
        },
        {
          "storeId": "11127750",
          "name": "KFC - Fahaheel",
          "lat": 29.0782,
          "lng": 48.1354,
          "passengerCount": 3,
          "scheduledTime": "09:00 AM"
        },
        {
          "storeId": "11198750",
          "name": "Krispy Kreme - Fahaheel",
          "lat": 29.07812165,
          "lng": 48.13541496,
          "passengerCount": 1,
          "scheduledTime": "09:00 AM"
        },
        {
          "storeId": "11147960",
          "name": "Hardees - Al Mangaf",
          "lat": 29.098987,
          "lng": 48.131574,
          "passengerCount": 1,
          "scheduledTime": "09:00 AM"
        },
        {
          "storeId": "11127960",
          "name": "KFC - Al Mangaf",
          "lat": 29.099227,
          "lng": 48.134147,
          "passengerCount": 2,
          "scheduledTime": "09:00 AM"
        },
        {
          "storeId": "11128400",
          "name": "KFC - Mangaf 2",
          "lat": 29.10458661,
          "lng": 48.12479592,
          "passengerCount": 1,
          "scheduledTime": "09:00 AM"
        },
        {
          "storeId": "11127760",
          "name": "KFC - Abo Helifa",
          "lat": 29.1339,
          "lng": 48.1324,
          "passengerCount": 2,
          "scheduledTime": "09:00 AM"
        },
        {
          "storeId": "11127780",
          "name": "KFC - Al Mahboola",
          "lat": 29.137847,
          "lng": 48.124191,
          "passengerCount": 1,
          "scheduledTime": "09:00 AM"
        }
      ],
      "employees": [
        {
          "code": "11017088",
          "name": "Antonio Jr D Bertuldo"
        },
        {
          "code": "11026462",
          "name": "Irshad Ismail"
        },
        {
          "code": "11026750",
          "name": "Ugyen Wangmo"
        },
        {
          "code": "11027000",
          "name": "Nitesh Thapa"
        },
        {
          "code": "11027068",
          "name": "Kishor Adhikari"
        },
        {
          "code": "11027070",
          "name": "Asmita Pariyar"
        },
        {
          "code": "11027090",
          "name": "Ibra Kagada"
        },
        {
          "code": "11027444",
          "name": "Ajay Kumar Sat Pal"
        },
        {
          "code": "11027533",
          "name": "Sai Vignesh Vodapally"
        },
        {
          "code": "11027916",
          "name": "Ayaz Shaik Jameel"
        },
        {
          "code": "11027977",
          "name": "Waheedahmed Riyazahmed Soudagar"
        },
        {
          "code": "11028234",
          "name": "Mohamed Magdy Gaber Mahfouz"
        },
        {
          "code": "11028366",
          "name": "Suntali Krishna Bahadur Sunuwar"
        },
        {
          "code": "11028574",
          "name": "Bedu Maya Ghalley"
        },
        {
          "code": "11028660",
          "name": "Lalita Monger"
        },
        {
          "code": "11029413",
          "name": "Sachin Wismitha Hewage"
        },
        {
          "code": "11029474",
          "name": "Hameed Shoukatali Mirjannavar"
        },
        {
          "code": "11029773",
          "name": "Marcy Jepkoech Kemei"
        },
        {
          "code": "11029858",
          "name": "Dilshan Milinda Liyana Gunawardana"
        },
        {
          "code": "11029887",
          "name": "Mohamed Arshad Badurdeen Mohamed Jaleel"
        },
        {
          "code": "11029941",
          "name": "Amal Rajeev Govind Raj"
        },
        {
          "code": "11029984",
          "name": "Noufal Meera Sahib Rafeeka Beevi"
        }
      ],
      "employeeCount": 22
    },
    {
      "day": "2026-04-05",
      "drive": "D6",
      "tripId": "T2",
      "type": "IN",
      "tripStart": "04:00 PM",
      "tripEnd": "04:47 PM",
      "stops": [
        {
          "storeId": "11188220",
          "name": "TGIF - Al Kout Mall",
          "lat": 29.0791,
          "lng": 48.1396,
          "passengerCount": 5,
          "scheduledTime": "04:00 PM"
        },
        {
          "storeId": "11127760",
          "name": "KFC - Abo Helifa",
          "lat": 29.1339,
          "lng": 48.1324,
          "passengerCount": 1,
          "scheduledTime": "04:00 PM"
        },
        {
          "storeId": "11187760",
          "name": "TGIF - Abu Halifa",
          "lat": 29.154,
          "lng": 48.1249,
          "passengerCount": 4,
          "scheduledTime": "04:00 PM"
        }
      ],
      "employees": [
        {
          "code": "11001526",
          "name": "Samer Disowky Khalil Baoumy"
        },
        {
          "code": "11024409",
          "name": "Mahmoud Abbas Abelhalim"
        },
        {
          "code": "11026632",
          "name": "Madan Sunuwar"
        },
        {
          "code": "11027164",
          "name": "Sanjeev Kumar"
        },
        {
          "code": "11027345",
          "name": "Aakibmohammad Hanifmohhamad Mk"
        },
        {
          "code": "11027767",
          "name": "Aboutery Helal Aboutery Ali"
        },
        {
          "code": "11027799",
          "name": "Ayesha Dilhani Welandagama Arachchilage"
        },
        {
          "code": "11028959",
          "name": "Krishna Kumari Sapkota"
        },